City_ID,City,Country,Max Temp,Current Description,Lat,Lng,Hotel Name
0,Bethel,US,70.48,overcast clouds,41.3712,-73.414,Courtyard by Marriott Danbury
1,Rajanpur,PK,89.33,clear sky,29.1035,70.325,Style Inn Shoes Rajanpur
2,Korla,CN,58.42,overcast clouds,41.7597,86.1469,Gulisitan Hotel
3,Jamestown,US,78.03,few clouds,42.097,-79.2353,Hampton Inn & Suites Jamestown
4,Bluff,NZ,50.81,broken clouds,-46.6,168.3333,Bluff Homestead - Guesthouse & Campervan Park
5,Kahta,TR,58.37,clear sky,37.7855,38.6237,Kommagene Hotel
6,Nemuro,JP,51.19,overcast clouds,43.3236,145.575,Hotel Nemuro Kaiyoutei
9,Esqueda,MX,83.8,clear sky,30.7167,-109.5833,Hotel Esqueda
12,Dauphin,CA,78.94,clear sky,51.1494,-100.0502,Canway Inn & Suites
14,Hermanus,ZA,61.81,clear sky,-34.4187,19.2345,Misty Waves Boutique Hotel
15,Mar Del Plata,AR,55.09,scattered clouds,-38.0023,-57.5575,Gran Hotel Mar del Plata
16,Vaini,TO,78.96,broken clouds,-21.2,-175.2,Keleti Beach Resort
17,Mataura,NZ,51.48,scattered clouds,-46.1927,168.8643,Ellie's Villa
19,Mahebourg,MU,69.26,light intensity shower rain,-20.4081,57.7,Shandrani Beachcomber Resort & Spa
20,Kaitangata,NZ,51.13,overcast clouds,-46.2817,169.8464,Kaitangata Motor Camp
21,Pinehurst,US,84.96,scattered clouds,35.1954,-79.4695,SpringHill Suites by Marriott Pinehurst Southern Pines
23,Puerto Ayora,EC,76.96,overcast clouds,-0.7393,-90.3518,Finch Bay Galapagos Hotel
26,Port Elizabeth,ZA,64.09,scattered clouds,-33.918,25.5701,39 On Nile Guest House
27,Busselton,AU,51.04,overcast clouds,-33.65,115.3333,Observatory Guest House
28,Saint-Philippe,RE,69.39,scattered clouds,-21.3585,55.7679,"Chambres d'hôte ""La Trinité"""
29,Vila Franca Do Campo,PT,73.81,overcast clouds,37.7167,-25.4333,Pestana Bahia Praia
30,Plettenberg Bay,ZA,60.66,scattered clouds,-34.0527,23.3716,Thanda Vista B&B
34,Georgetown,MY,76.95,scattered clouds,5.4112,100.3354,Cititel Penang
35,Ushuaia,AR,51.42,broken clouds,-54.8,-68.3,Albatros Hotel
38,Griffith,US,72.09,mist,41.5284,-87.4237,"Motel 6 Hammond, IN - Chicago Area"
40,Teahupoo,PF,75.16,broken clouds,-17.8333,-149.2667,Vanira Lodge
42,Arraial Do Cabo,BR,73.36,broken clouds,-22.9661,-42.0278,Pousada Porto Praia
43,Carnarvon,AU,60.87,clear sky,-24.8667,113.6333,Hospitality Carnarvon
45,Bengkulu,ID,73.6,overcast clouds,-3.8004,102.2655,Grage Hotel Bengkulu
46,Kununurra,AU,75.18,broken clouds,-15.7667,128.7333,Hotel Kununurra
48,Nakamura,JP,64.72,clear sky,32.9833,132.9333,Hotel Crown Hills Nakamura
49,Nikolskoye,RU,52.88,clear sky,59.7035,30.7861,Tourist House - Sablino
50,Rikitea,PF,73.92,overcast clouds,-23.1203,-134.9692,People ThankYou
51,Cayenne,GF,84.24,clear sky,4.9333,-52.3333,Hôtel Le Dronmi
54,Port Alfred,ZA,65.16,scattered clouds,-33.5906,26.891,The Halyards Hotel
56,Bredasdorp,ZA,61.29,few clouds,-34.5322,20.0403,Bredasdorp Country Manor
58,Vila Velha,BR,75.15,scattered clouds,-20.3297,-40.2925,Quality Suites Vila Velha
59,Komsomolskiy,UZ,51.22,broken clouds,40.4272,71.7189,Ikathouse
62,Waddan,LY,75.27,clear sky,29.1614,16.139,محل الشريف محمد العايب
63,Asheville,US,72.27,overcast clouds,35.6009,-82.554,Four Points by Sheraton Asheville Downtown
64,East London,ZA,66.4,light rain,-33.0153,27.9116,Tu Casa
65,Tuatapere,NZ,50.83,overcast clouds,-46.1333,167.6833,Ron and Tony's Bed & Breakfast
67,Airai,TL,57.87,few clouds,-8.9266,125.4092,Juvinal Martin
68,Assiniboia,CA,76.82,overcast clouds,49.6334,-105.9845,Canalta Hotel Assiniboia
71,Lompoc,US,79.7,clear sky,34.6391,-120.4579,"Holiday Inn Express Lompoc, an IHG Hotel"
74,Cape Town,ZA,65.88,clear sky,-33.9258,18.4232,Southern Sun Waterfront Cape Town
75,Pedernales,DO,88.29,overcast clouds,18.0384,-71.744,Hotel Costa Marina
77,Bafilo,TG,73.06,clear sky,9.35,1.2667,Hôtel Assoli
78,Hilo,US,83.28,moderate rain,19.7297,-155.09,Hilo Hawaiian Hotel
80,Shingu,JP,69.85,broken clouds,33.7333,135.9833,Shingu UI Hotel
81,Castro,BR,73.0,overcast clouds,-24.7911,-50.0119,CHACARA BAILLY
83,Bairiki,KI,82.4,scattered clouds,1.3292,172.9752,Tarawa Boutique Hotel
84,Atuona,PF,78.42,few clouds,-9.8,-139.0333,Villa Enata
85,Tinsukia,IN,71.98,clear sky,27.5,95.3667,Hotel Ballerina
88,Wanning,CN,80.17,moderate rain,18.8003,110.3967,Paradise Hotel
89,Broome,US,74.17,broken clouds,42.2506,-75.833,Chenango Valley State Park
90,Rawson,AR,59.81,clear sky,-43.3002,-65.1023,Hosteria Sampedro
91,Hasaki,JP,66.6,overcast clouds,35.7333,140.8333,Hotel Sunrise Choshi
92,Jiwani,PK,80.51,clear sky,25.05,61.7417,Al Mumtaz Transport Jiwani
93,Bandipur,NP,63.45,clear sky,27.9333,84.4167,Bandipur Guest House
95,Hirara,JP,82.45,overcast clouds,24.8,125.2833,Hotel Atoll Emerald Miyakojima
97,Kathmandu,NP,68.22,broken clouds,27.7167,85.3167,Hotel Shanker Kathmandu
99,Bambous Virieux,MU,69.22,light intensity shower rain,-20.3428,57.7575,Casa Tia Villa
100,Labuhan,ID,76.6,overcast clouds,-6.8844,112.2051,PT PPI Lamongan Tambak C
105,Omboue,GA,76.03,overcast clouds,-1.5746,9.2618,Hotel Olako
106,Arlit,NE,87.75,clear sky,18.7369,7.3853,Case de Passage De la Prefecture
107,Surt,LY,74.35,clear sky,31.2089,16.5887,الهادي ابوشعاله سرت
108,Soe,ID,63.36,scattered clouds,-9.8607,124.284,Dena Hotel
109,Milton,US,77.54,broken clouds,34.1322,-84.3007,Children's Cottage Montessori
110,Lima,PE,67.14,few clouds,-12.0432,-77.0282,Gran Hotel Bolivar Lima
111,Sehithwa,BW,79.93,broken clouds,-20.4667,22.7167,MONLEK GUEST HOUSE
112,Anloga,GH,78.87,overcast clouds,5.7947,0.8973,Pin Drop Hotel
113,Butaritari,KI,81.72,overcast clouds,3.0707,172.7902,Isles Sunset Lodge
114,Constitucion,CL,61.09,clear sky,-35.3333,-72.4167,Hotel Boutique Las Azucenas
115,Marsa Matruh,EG,71.47,clear sky,31.3525,27.2453,Beau Site
117,Jhudo,PK,84.11,overcast clouds,24.964,69.2968,Nagori Gas Stor
119,North Bend,US,61.25,scattered clouds,43.4065,-124.2243,Red Lion Hotel Coos Bay
120,Thompson,CA,55.56,broken clouds,55.7435,-97.8558,Burntwood Hotel
122,Havre De Grace,US,74.84,broken clouds,39.5493,-76.0916,Super 8 by Wyndham Havre De Grace Aberdeen Area
123,Grand Gaube,MU,69.39,light rain,-20.0064,57.6608,Veranda Paul et Virginie Hotel & Spa
124,Mogadishu,SO,77.97,overcast clouds,2.0371,45.3438,Hotel Juba
126,Biak,ID,74.64,overcast clouds,-0.9131,122.8766,Penginapan Kim
128,Kahului,US,84.22,scattered clouds,20.8947,-156.47,Maui Seaside Hotel
129,Hami,CN,55.51,overcast clouds,42.8,93.45,Laoyutang Resort
131,Torbay,CA,61.27,overcast clouds,47.6666,-52.7314,Gallows Cove
132,Bambanglipuro,ID,74.57,broken clouds,-7.95,110.2833,Puri Brata
134,Bontang,ID,76.35,overcast clouds,0.1333,117.5,KOPKAR Hotel Bintang Sintuk
135,Balkanabat,TM,59.47,overcast clouds,39.5108,54.3671,Nebitchi Hotel
136,Yulara,AU,60.64,clear sky,-25.2406,130.9889,Desert Gardens Hotel - Ayers Rock Resort
138,Athens,GR,65.16,clear sky,37.9795,23.7162,Novotel Athenes
139,Victoria,HK,86.38,clear sky,22.2855,114.1577,Mini Hotel Central
140,Cordoba,AR,67.42,clear sky,-31.4135,-64.1811,Hotel Sussex
142,Clearlake,US,70.18,overcast clouds,38.9582,-122.6264,Americas Best Value Inn & Suites Clearlake Wine Country
143,Westport,US,72.46,overcast clouds,41.1415,-73.3579,The Westport Inn
147,Sinnamary,GF,82.44,overcast clouds,5.3833,-52.95,ALETHEIA Appartement Sinnamary
148,Itoman,JP,78.82,few clouds,26.1247,127.6694,Southern Beach Hotel & Resort Okinawa
149,Belfast,GB,58.48,overcast clouds,54.5833,-5.9333,Wellington Park Hotel
150,Smoky Lake,CA,51.49,overcast clouds,54.1169,-112.4686,Country Garden Hotel
151,Neuquen,AR,60.69,clear sky,-38.9516,-68.0591,Hotel del Comahue
152,Gonbad-E Qabus,IR,66.15,overcast clouds,37.25,55.1672,Samin Building
154,Sabha,LY,76.53,clear sky,27.0377,14.4283,Foundation Taaj Asala for Historical Research and Archeology
155,Nassau,US,72.0,overcast clouds,40.7507,-73.5829,Hilton Garden Inn Westbury
157,Chapais,CA,69.58,overcast clouds,49.7834,-74.8492,Hôtel Opémiska
158,Serowe,BW,73.0,broken clouds,-22.3833,26.7167,Hill View Inn
159,Mengcheng,CN,56.75,light rain,33.2579,116.5655,Jinliang Hotel
161,Ancud,CL,56.73,clear sky,-41.8697,-73.8203,Hotel Arena Gruesa
162,Faya,SA,66.31,scattered clouds,18.3851,42.4509,املاك خالد الشعشوع
167,Ixtapa,MX,89.22,few clouds,20.7,-105.2,Hotel Plaza Providencia
169,Mana,GF,81.68,heavy intensity rain,5.6592,-53.7767,LE SAMANA
170,Chuy,UY,55.33,broken clouds,-33.6971,-53.4616,Nuevo Hotel Plaza
171,Tabas,IR,79.14,clear sky,33.5959,56.9244,شرکت معماری مهراز شایگان آراد
173,Dehloran,IR,83.91,clear sky,32.6941,47.2679,کافه گیم استورم
175,Fergus Falls,US,76.26,clear sky,46.283,-96.0776,AmericInn by Wyndham Fergus Falls Conference Center
176,Meulaboh,ID,76.95,overcast clouds,4.1363,96.1285,Kost Pria
177,Kapaa,US,82.72,light rain,22.0752,-159.319,Sheraton Kauai Coconut Beach Resort
179,Amahai,ID,76.95,moderate rain,-3.3333,128.9167,HOTEL ISABELA
181,Chicama,PE,63.14,few clouds,-7.8447,-79.1469,Balihai Bungalows
182,Bundaberg,AU,64.22,clear sky,-24.85,152.35,Takalvan Motel
183,Portland,US,62.74,broken clouds,45.5234,-122.6762,Embassy Suites by Hilton Portland Downtown
186,Gisborne,NZ,57.94,moderate rain,-38.6533,178.0042,ASURE Alfresco Motor Lodge
187,Touros,BR,83.3,broken clouds,-5.1989,-35.4608,INN NEW HORIZON
191,Nouadhibou,MR,71.58,clear sky,20.931,-17.0347,El Medina
192,Moose Factory,CA,71.6,clear sky,51.2585,-80.6094,Moosonee Lilypad
193,Junction City,US,75.61,overcast clouds,39.0286,-96.8314,Comfort Inn & Suites Junction City - Near Fort Riley
194,Asfi,MA,70.63,overcast clouds,32.2994,-9.2372,Hôtel Abda
196,Saint Anthony,US,75.13,broken clouds,45.0205,-93.218,"Holiday Inn Express Roseville-St. Paul, an IHG Hotel"
198,Alizai,PK,74.59,clear sky,33.5383,70.3462,Alizai Rest House
201,Luangwa,ZM,79.72,clear sky,-15.6167,30.4167,Gerasimos Safari Lodge
202,San Cristobal,VE,82.58,broken clouds,7.7669,-72.225,Posada Villaven C.A.
203,Guerrero Negro,MX,76.55,broken clouds,27.9769,-114.0611,"Casa Laguna, Bed & Breakfast"
204,Camacha,PT,69.22,few clouds,33.0833,-16.3333,Hotel Porto Santo & Spa
205,Morondava,MG,76.44,clear sky,-20.2833,44.2833,La Case Bambou
206,La Ronge,CA,55.65,smoke,55.1001,-105.2842,Northland Motor Hotel
208,Lorengau,PG,78.3,overcast clouds,-2.0226,147.2712,Lorengau Harbourside Hotel
210,Acarau,BR,82.06,broken clouds,-2.8856,-40.12,castelo pizzaria
211,Sambava,MG,70.2,broken clouds,-14.2667,50.1667,Melrose
212,Yarada,IN,82.72,few clouds,17.65,83.2667,Jeevan
214,Turan,VN,77.05,moderate rain,16.0678,108.2208,Sun River Hotel
216,Harper,LR,78.26,scattered clouds,4.375,-7.7169,Screensaver
217,Halifax,CA,71.01,scattered clouds,44.6453,-63.5724,Hotel Halifax
219,Kralendijk,BQ,87.78,few clouds,12.15,-68.2667,Divi Flamingo Beach Resort & Casino
220,Fortuna,US,66.42,clear sky,40.5982,-124.1573,Super 8 by Wyndham Fortuna
222,Ampanihy,MG,62.22,clear sky,-24.7,44.75,Angora Hotel
223,Qui Nhon,VN,75.45,heavy intensity rain,13.7667,109.2333,Hoang Yen Canary Hotel
225,Kimbe,PG,74.98,overcast clouds,-5.5502,150.1429,Kimbe Bay Hotel
227,Havre-Saint-Pierre,CA,57.79,clear sky,50.2334,-63.5986,Auberge Niapiskau
229,Hithadhoo,MV,83.68,scattered clouds,-0.6,73.0833,Scoop Guest House
230,Bar Harbor,US,73.35,clear sky,44.3876,-68.2039,Atlantic Oceanside Hotel & Event Center
231,Matara,LK,78.15,scattered clouds,5.9485,80.5353,Amaloh Boutique Resort
232,Monywa,MM,82.02,clear sky,22.1167,95.1333,Monywa Hotel
235,Da Lat,VN,60.85,overcast clouds,11.9465,108.4419,Khách Sạn Dragon King I
236,Bembereke,BJ,77.7,overcast clouds,10.2283,2.6634,Hotel Bio Guera
238,Burriana,ES,71.67,overcast clouds,39.889,-0.085,Hotel Beatriz
239,Bushehr,IR,84.29,haze,28.9684,50.8385,Yas Hotel
240,The Hammocks,US,89.62,few clouds,25.6715,-80.4445,Casa tío Hernan
241,Katsuura,JP,68.18,overcast clouds,35.1333,140.3,Katsuura Hotel Mikazuki
242,Preobrazheniye,RU,51.84,overcast clouds,42.9019,133.9064,Campsite Orlan
243,Sao Filipe,CV,79.54,few clouds,14.8961,-24.4956,Hotel Xaguate
245,Nantucket,US,68.02,clear sky,41.2835,-70.0995,Jared Coffin House
246,Langsa,ID,74.8,overcast clouds,4.4683,97.9683,OYO 2964 Hotel Ridho
247,Kulhudhuffushi,MV,81.79,overcast clouds,6.6221,73.07,Hondaafushi Island Resort
249,Zabid,YE,88.92,overcast clouds,14.1951,43.3152,دار الضيافة
250,Jipijapa,EC,71.1,overcast clouds,-1.3333,-80.5833,Hotel Los Ceibos Jipijapa
252,Kinna,SE,55.44,clear sky,57.5073,12.6946,Hanatorps Camping
253,Barranquilla,CO,87.58,scattered clouds,10.9639,-74.7964,Hotel Don Jorge
254,Tocopilla,CL,67.06,broken clouds,-22.092,-70.1979,Hotel Galvarino
255,Saldanha,ZA,68.05,clear sky,-33.0117,17.9442,Blue Bay Lodge
256,San Policarpo,PH,78.19,moderate rain,12.1791,125.5072,Agapita M. Nicart
257,Ferrol,ES,64.65,clear sky,43.4832,-8.2369,Parador de Ferrol
258,Lebu,CL,58.19,clear sky,-37.6167,-73.65,Hostal Las Lilas
259,Acapulco,MX,87.62,scattered clouds,16.8634,-99.8901,HS Hotsson Smart Acapulco
260,Sindou,BF,78.1,light rain,10.6667,-5.1667,LERABA HOTEL
262,Bathsheba,BB,83.01,broken clouds,13.2167,-59.5167,Atlantis Hotel
265,Brazzaville,CG,86.31,overcast clouds,-4.2658,15.2832,Hotel Muesse
266,Noumea,NC,75.0,overcast clouds,-22.2763,166.4572,Hôtel Le Lagon
267,Buala,SB,80.89,broken clouds,-8.145,159.5921,Maringe Lagoon Lodge
268,Timbiqui,CO,81.19,light rain,2.7717,-77.6654,hotel diana
269,Vao,NC,69.84,clear sky,-22.6667,167.4833,Hotel Kou-Bugny
270,Pionerskiy,RU,55.24,light rain,54.9508,20.2275,Baltica Pension
272,Cidreira,BR,67.26,overcast clouds,-30.1811,-50.2056,Hotel Castelo
273,College Station,US,88.95,few clouds,30.628,-96.3344,Homewood Suites by Hilton College Station
275,Kharan,PK,77.97,clear sky,28.5833,65.4167,Dil Aram Bangla
278,Oxford,GB,55.56,clear sky,51.7522,-1.256,Malmaison Oxford
283,Bandarbeyla,SO,79.32,overcast clouds,9.4942,50.8122,JABIR HOTEL
284,Yarim,YE,61.79,broken clouds,14.298,44.3779,وليد المسوري ابو اسد
285,Mahon,ES,64.96,broken clouds,39.8885,4.2658,ARTIEM Capri
286,Dezful,IR,86.4,broken clouds,32.3811,48.4058,سالن پیرایش امید
287,Jining,CN,54.72,overcast clouds,35.405,116.5814,Yunhe Star Hotel
289,Los Llanos De Aridane,ES,69.55,volcanic ash,28.6585,-17.9182,Valle Aridane
291,Bosaso,SO,88.7,clear sky,11.2842,49.1816,Red Sea Hotel
292,Saint George,US,79.43,clear sky,37.1041,-113.5841,Best Western Plus Abbey Inn
294,Laguna,US,79.14,clear sky,38.421,-121.4238,"Holiday Inn Express & Suites Elk Grove Central - Hwy 99, an IHG Hotel"
295,Kumluca,TR,70.59,clear sky,36.3703,30.2869,TurkuazKöy
296,Caravelas,BR,77.47,clear sky,-17.7125,-39.2481,Pousada dos Navegantes
298,Damghan,IR,61.34,broken clouds,36.1683,54.348,خوابگاه اساتيد دانشگاه دامغان
299,Cabra,ES,74.25,few clouds,37.4725,-4.4421,MS Fuente Las Piedras
300,Najran,SA,79.45,clear sky,17.4924,44.1277,محمد هادي ال فطيح
301,Yining,CN,65.73,broken clouds,29.0361,114.5636,Xiushui Hotel
302,Ahuimanu,US,83.91,scattered clouds,21.4447,-157.8378,Paradise Bay Resort
304,Coihaique,CL,56.01,clear sky,-45.5752,-72.0662,Diego De Almagro Coyhaique
305,Ruteng,ID,61.56,broken clouds,-8.6136,120.4721,Hotel FX 72
306,Coka,RS,61.63,overcast clouds,45.9425,20.1433,"Hotel ""Ždrebac"""
307,Avarua,CK,77.05,few clouds,-21.2078,-159.775,Paradise Inn
308,Koratagere,IN,73.27,overcast clouds,13.5228,77.2331,Darshan studio
309,Kavieng,PG,79.57,light rain,-2.5744,150.7967,Nusa Island Retreat
310,Daru,PG,77.0,overcast clouds,-9.0763,143.2092,Daru Lodge
311,Zhaotong,CN,57.52,overcast clouds,27.3167,103.7167,Jingguan Home
312,Waitati,NZ,55.81,overcast clouds,-45.75,170.5667,Arden Country House BnB Dunedin
313,Plainview,US,71.74,overcast clouds,40.7765,-73.4673,Four Points by Sheraton Melville Long Island
315,Lata,PT,65.8,clear sky,40.1629,-8.3327,Casa Maquia
316,Ponta Do Sol,PT,72.23,overcast clouds,32.6667,-17.1,Hotel do Campo
317,Luwingu,ZM,75.99,clear sky,-10.2621,29.9271,"MR.C SIMON CHABALA (Maje, Home Place)"
320,Moorhead,US,77.99,clear sky,46.8739,-96.7676,"Courtyard by Marriott Fargo Moorhead, MN"
321,Isangel,VU,75.31,scattered clouds,-19.55,169.2667,Tanna Lodge
323,Jackson,US,58.44,clear sky,42.4165,-122.8345,Agate Village Apartments
325,Guangyuan,CN,58.35,overcast clouds,32.442,105.823,Guangyuan Poetry Hotel
326,Jalu,LY,72.5,clear sky,29.0331,21.5482,صاحبة الفخامة
327,Bima,ID,72.1,scattered clouds,-8.4667,118.7167,Lambitu Hotel
328,Ahipara,NZ,59.56,light rain,-35.1667,173.1667,Ahipara Holiday Park
329,Waipawa,NZ,56.03,light rain,-41.4122,175.5153,Tora Coastal Walk
330,Fujinomiya,JP,69.17,overcast clouds,35.2167,138.6167,Fujinomiya Green Hotel
331,Tura,IN,72.91,clear sky,25.5198,90.2201,Hotel RIKMAN Continental
332,Kisangani,CD,70.29,scattered clouds,0.5167,25.2,Grand Ramela Hotel
333,Dubrovnik,HR,65.84,scattered clouds,42.6481,18.0922,Hotel Dubrovnik Palace
334,Hambantota,LK,79.48,scattered clouds,6.1241,81.1185,Bungalow 63
335,Santo Estevao,BR,80.73,broken clouds,-12.4303,-39.2514,Campo Hotel
336,Ottumwa,US,77.68,overcast clouds,41.02,-92.4113,Hampton Inn Ottumwa
337,Orangeburg,US,82.36,mist,33.4918,-80.8557,Palmetto Inn & Suites
338,Tateyama,JP,68.09,overcast clouds,34.9833,139.8667,Tateyama Seaside Hotel
341,Wanxian,CN,69.46,light rain,30.8039,108.3897,7Days Inn Chongqing Shiqiaopu
342,Caldwell,US,70.18,clear sky,43.6629,-116.6874,La Quinta Inn by Wyndham Caldwell
344,Maningrida,AU,75.67,broken clouds,-12.0667,134.2667,Dhukurrdji Lodge
346,Richards Bay,ZA,65.61,light rain,-28.783,32.0377,BON Hotel Waterfront Richards Bay
347,Jumla,NP,54.27,clear sky,29.2747,82.1838,"अन्नी घर, जुम्ला - Anni Ghar"
348,Fuyang,CN,55.72,broken clouds,32.9,115.8167,Fuyang Wanda Realm Hotel
349,Redlands,US,85.1,overcast clouds,34.0556,-117.1825,Dynasty Suites Redlands
352,Bismil,TR,60.53,clear sky,37.8486,40.6658,ARİF AKGÜNDÜZ
353,General Roca,AR,61.2,clear sky,-39.0333,-67.5833,Hotel y Casino del Río General Roca
354,Inhambane,MZ,71.2,broken clouds,-23.865,35.3833,Oceano
355,Pisco,PE,68.05,clear sky,-13.7,-76.2167,Hotel San Isidro Oficial
357,Cap Malheureux,MU,69.48,light rain,-19.9842,57.6142,Pereybere Hotel & Spa
358,Bubaque,GW,83.17,few clouds,11.2833,-15.8333,"Casa Dora, Bubaque"
362,Lufilufi,WS,85.78,light rain,-13.8745,-171.5986,Leuaina Beach Resort and Spa
363,Kirakira,SB,80.58,overcast clouds,-10.4544,161.9205,SanBiz Lodge
364,Pahrump,US,80.94,broken clouds,36.2083,-115.9839,Best Western Pahrump Oasis
365,Kambove,CD,70.21,broken clouds,-10.8764,26.5969,Couvant des soeurs catholiques
366,Trairi,BR,81.23,overcast clouds,-3.2778,-39.2689,janelas do mar
367,Lander,US,72.1,overcast clouds,42.833,-108.7307,"Holiday Inn Express & Suites Lander, an IHG Hotel"
368,Kathu,TH,81.7,overcast clouds,7.9178,98.3332,Novotel Phuket Resort
369,Owatonna,US,76.06,broken clouds,44.0839,-93.226,Executive Inn Owatonna
370,Alofi,NU,78.69,broken clouds,-19.0595,-169.9187,Taloa Heights
372,Taunggyi,MM,61.9,overcast clouds,20.7833,97.0333,True Treasure Hotel
373,Eydhafushi,MV,82.09,overcast clouds,5.1033,73.0708,Soneva Fushi
374,Jijiga,ET,67.71,scattered clouds,9.35,42.8,RAMAAS HOTEL
375,Tiradentes,BR,72.01,overcast clouds,-21.1103,-44.1781,Hotel Serra Vista
377,Goma,CD,63.25,light rain,-1.6792,29.2228,Hotel la Versailles Goma
378,Itaquyry,PY,84.42,heavy intensity rain,-24.9333,-55.2167,Posada Santa Celina
380,Sibolga,ID,75.61,overcast clouds,1.7427,98.7792,Hotel Syariah CN Darussalam
381,Mount Pleasant,US,78.8,clear sky,32.7941,-79.8626,Best Western Patriots Point
382,Port Hawkesbury,CA,65.91,clear sky,45.6169,-61.3485,MacKenzie House Tourist Home B&B
383,Bam,IR,79.86,few clouds,29.106,58.357,Bam Tourist Hotel
386,Menongue,AO,66.63,overcast clouds,-14.6585,17.691,Ritz Lauca
387,Ukiah,US,73.04,clear sky,39.1502,-123.2078,Hampton Inn Ukiah
388,Dingle,PH,75.06,overcast clouds,10.9995,122.6711,SEGAYA PROPERTY
389,Dunedin,NZ,54.82,overcast clouds,-45.8742,170.5036,Scenic Hotel Southern Cross
390,Cabinda,AO,76.77,overcast clouds,-5.55,12.2,Hotel Maiombe
391,Alim,PH,79.21,broken clouds,9.5649,122.4876,Calamai Tropica
393,Valencia,ES,67.6,broken clouds,39.3333,-0.8333,Masia El Pino
394,Singaraja,ID,74.97,scattered clouds,-8.112,115.0882,Puri Bagus Lovina Resort
397,Kyrylivka,UA,54.5,broken clouds,46.3759,35.3675,"Rok-Hotelʹ ""Kleopatra"""
401,Souillac,MU,69.37,light intensity shower rain,-20.5167,57.5167,Shanti Maurice Resort & Spa
402,Santa Vitoria Do Palmar,BR,55.92,broken clouds,-33.5189,-53.3681,Hostel Comodoro
403,Santana Do Mundau,BR,78.78,overcast clouds,-9.1681,-36.2222,Agro-Construções E Pousada 3M
405,Pacific Grove,US,73.58,clear sky,36.6177,-121.9166,Lovers Point Inn
406,Gat,IL,72.81,clear sky,31.61,34.7642,OlusHome
407,Lithakia,GR,72.59,overcast clouds,37.7167,20.8333,Zante Plaza Hotel & Apartments
408,Poum,NC,73.44,clear sky,-20.2333,164.0167,Gîte kajeon
409,Sokoni,TZ,76.86,broken clouds,-6.4333,39.55,Ujamaa Beach Resort
411,Sterling,US,72.23,mist,39.0062,-77.4286,Hampton Inn & Suites Washington-Dulles International Airport
412,Hurghada,EG,78.84,clear sky,27.2574,33.8129,Sea Star Beau Rivage Hotel
413,Joppatowne,US,74.3,broken clouds,39.4579,-76.3552,Hampton Inn & Suites Edgewood/Aberdeen-South
414,Hornepayne,CA,69.76,clear sky,49.2138,-84.7705,Kay-Vee Lodge Ltd
420,Sioux Lookout,CA,73.78,scattered clouds,50.1001,-91.917,Knobby's Fly-In Camps
422,Srisailam,IN,72.59,overcast clouds,16.0833,78.8667,Vasavi Satram
423,Albino,IT,55.45,few clouds,45.7638,9.7964,Harmony Suite Hotel
424,San Vicente,AR,69.87,overcast clouds,-26.6167,-54.1333,Complejo Turístico Farelluk
425,Chaman,PK,63.7,clear sky,30.9236,66.4512,Niamat parda Center chaman
426,Tshikapa,CD,73.06,overcast clouds,-6.4167,20.8,Hôtel Tshia-Muntu de Tshikapa
427,Conde,BR,80.06,few clouds,-7.2597,-34.9075,Pousada Beija Flor
429,Estelle,US,85.05,broken clouds,29.8458,-90.1067,Boomtown Casino & Hotel New Orleans
430,Guadalajara,MX,78.98,broken clouds,20.6667,-103.3333,Hotel Aranzazú
431,Hamilton,US,79.59,clear sky,39.1834,-84.5333,Six Acres Bed & Breakfast
433,Abu Dhabi,AE,89.62,clear sky,24.4667,54.3667,Ramee Garden Hotel Apartments
435,Pilar,BR,80.53,few clouds,-9.5972,-35.9567,Pousada e churrascaria Manguaba
437,Alice Springs,AU,60.35,scattered clouds,-23.7,133.8833,Desert Palms Alice Springs
439,Manokwari,ID,78.13,overcast clouds,-0.8667,134.0833,Swiss Belhotel Manokwari
440,Zhangye,CN,55.83,few clouds,38.9342,100.4517,Zhangye Lvzhou Holiday Inn
441,Tautira,PF,80.62,broken clouds,-17.7333,-149.15,Pension Oaoa
443,Byron Bay,AU,60.75,clear sky,-28.65,153.6167,Backpackers Inn on the Beach
444,Tananger,NO,53.74,broken clouds,58.9333,5.6,Hummeren Hotel
445,Bilma,NE,83.77,clear sky,18.6853,12.9164,Expeditions Ténére voyages
446,Faanui,PF,78.53,clear sky,-16.4833,-151.75,Bora-Bora Pearl Beach Resort & Spa
447,Kruisfontein,ZA,61.88,few clouds,-34.0033,24.7314,Oyster Bay House Rental
448,Waverley,ZA,67.53,clear sky,-25.7023,28.2591,Aves Indigo Guesthouse
449,Teknaf,BD,79.07,scattered clouds,20.8624,92.3058,Forestry Guesthouse
451,Lloydminster,CA,50.22,smoke,53.2835,-110.0016,BCMInns - Lloydminster
453,Murupara,NZ,60.28,overcast clouds,-38.4667,176.7,Murupara Motor Camp
457,Colombo,LK,76.95,broken clouds,6.9319,79.8478,Galle Face Hotel
458,Padang,ID,77.16,overcast clouds,-0.9492,100.3543,Mercure Padang
460,Kemptville,CA,73.53,clear sky,45.0168,-75.641,Kemptville Suites by Rob Thompson Hotels
462,San Quintin,MX,72.77,broken clouds,30.4833,-115.95,Don Eddie's Sport Fishing Center
463,Pimenta Bueno,BR,89.08,overcast clouds,-11.6725,-61.1936,Cristalina Palace Hotel
464,Maarianhamina,AX,55.26,overcast clouds,60.0973,19.9348,Park Alandia Hotel
465,Tucupita,VE,82.85,scattered clouds,9.0622,-62.051,Hotel Tucupita Su​ite C.A.
466,Naustdal,NO,51.12,fog,61.509,5.7168,Naustdal Camping
467,Bonthe,SL,79.65,broken clouds,7.5264,-12.505,Bonthe Holiday Village
468,Namatanai,PG,77.52,overcast clouds,-3.6667,152.4333,Seagulls Inn Namatani
470,Argelia,CO,76.37,moderate rain,2.2556,-77.2488,Hotel San Fernando Argelia
475,Moranbah,AU,63.99,clear sky,-22.0016,148.0466,Direct Hotels - Monterey Moranbah
477,Rosetta,EG,75.02,clear sky,31.4044,30.4164,Green Valley
478,Lukovetskiy,RU,51.78,light rain,64.2956,41.9211,Gostinitsa
482,Pozo Colorado,PY,86.94,overcast clouds,-23.4923,-58.7972,Hospedaje la Amistad
483,Samarai,PG,79.41,broken clouds,-10.6167,150.6667,Nuli Sapi
484,Nuevo Progreso,MX,88.59,clear sky,23.1667,-97.95,Balneario Rio el Paraiso
485,Xinyu,CN,74.53,light rain,27.8043,114.9334,Xinyu Beihu Hotel
487,Bucerias,MX,89.98,few clouds,20.75,-105.3333,Royal Decameron Complex - Puerto Vallarta
488,Port Blair,IN,80.76,overcast clouds,11.6667,92.75,"Welcomhotel By ITC Hotels, Bay Island, Port Blair"
489,Sao Joao Da Barra,BR,75.29,overcast clouds,-21.6403,-41.0511,Pousada Porto De Canoas
490,Tlapacoyan,MX,81.0,few clouds,19.9667,-97.2167,Hotel San Diego
496,Saint-Paul,RE,69.91,clear sky,-21.0096,55.2707,Boucan Canot
497,Ribeira Grande,PT,72.0,broken clouds,38.5167,-28.7,Quinta da Meia Eira
499,Nong Bua,TH,76.35,light rain,15.8646,100.5858,ลภัสรดารีสอร์ท
500,Sabang,ID,81.14,moderate rain,5.8933,95.3214,Hotel Citra
502,Vasto,IT,62.46,broken clouds,42.1243,14.7059,Hotel President
505,Big Spring,US,86.45,clear sky,32.2504,-101.4787,Hampton Inn & Suites Big Spring
507,Abbeville,FR,57.49,scattered clouds,50.1,1.8333,Hôtel Mercure Abbeville Centre - Porte de la Baie de Somme
510,Eucaliptus,BO,56.62,overcast clouds,-17.5833,-67.5167,Hotel Serrano
511,Cockburn Town,TC,85.96,scattered clouds,21.4612,-71.1419,Osprey Beach Hotel
512,Dawei,MM,75.76,moderate rain,14.0833,98.2,Hotel Dawei
513,Sydney Mines,CA,65.17,scattered clouds,46.2367,-60.2177,At The Harbourfront B&B Inc
514,Celestun,MX,83.01,broken clouds,20.8667,-90.4,Posada Lilia
516,Kingman,US,78.3,clear sky,35.1894,-114.053,Rodeway Inn Kingman Route 66
517,Little Current,CA,66.29,clear sky,45.9793,-81.9248,Hawberry Motel
519,Sofia,BG,54.61,clear sky,42.6975,23.3242,Hotel Slavyanska Beseda
522,Mamallapuram,IN,82.45,scattered clouds,12.6264,80.1722,Radisson Blu Resort Temple Bay Mamallapuram
523,Ballina,AU,54.79,few clouds,-28.8667,153.5667,Ramada Hotel & Suites by Wyndham Ballina Byron
524,Dzaoudzi,YT,78.69,broken clouds,-12.7887,45.2699,Le Rocher
525,Mount Isa,AU,65.97,few clouds,-20.7333,139.5,ibis Styles Mt Isa Verona
526,Makakilo City,US,82.72,few clouds,21.3469,-158.0858,Marriott's Ko Olina Beach Club
529,Peniche,PT,74.68,broken clouds,39.3558,-9.3811,Hotel Star inn Peniche
531,Constantine,DZ,63.81,scattered clouds,36.365,6.6147,Grand Hotel Cirta
533,Kiunga,PG,72.14,overcast clouds,-6.1219,141.2906,Airport Lodge Kiunga
534,Mutare,ZW,65.16,clear sky,-18.9707,32.6709,Ann Bruce Backpackers
536,Mecca,SA,86.58,clear sky,21.4267,39.8261,"Makkah Clock Royal Tower, A Fairmont Hotel"
539,Coruripe,BR,77.86,scattered clouds,-10.1256,-36.1756,Pousada e Hotel Litoral Sul
540,Santiago Del Estero,AR,65.8,overcast clouds,-27.7951,-64.2615,Apartamentos Castelli 90
541,Maragogi,BR,77.23,broken clouds,-9.0122,-35.2225,Salinas do Maragogi All Inclusive Resort
544,Pangai,TO,80.71,scattered clouds,-19.8,-174.35,Ha'apai Beach Resort
546,Gasa,PS,73.9,clear sky,31.5,34.4667,رابطة الفنانين الفلسطينيين
547,Gimli,CA,83.43,overcast clouds,50.6336,-96.9907,Lakeview Gimli Resort
548,Kijang,KR,67.73,clear sky,35.2442,129.2139,Samyang Beach Villa
549,Itarema,BR,81.36,overcast clouds,-2.9248,-39.9167,"Sea Lounge! Bar, Club & Restaurant"
551,Ngunguru,NZ,62.17,overcast clouds,-35.6167,174.5,Pacific Rendezvous Motel Resort
552,Gladstone,AU,61.79,clear sky,-23.85,151.25,Highpoint International
